 {
    "riders": [
    {
      "id": "RD-001",
      "name": "Lata Joshi",
      "phone": "9305303856",
      "lat": 26.82519,
      "lon": 80.905224,
      "vehicle": "bike",
      "available": false
    },
    {
      "id": "RD-002",
      "name": "Neha Joshi",
      "phone": "9537298914",
      "lat": 26.908303,
      "lon": 80.953543,
      "vehicle": "scooter",
      "available": true
    },
    {
      "id": "RD-003",
      "name": "Pooja Joshi",
      "phone": "9823902760",
      "lat": 26.921458,
      "lon": 80.916174,
      "vehicle": "bike",
      "available": true
    },
    {
      "id": "RD-004",
      "name": "Nisha Verma",
      "phone": "9524518215",
      "lat": 26.890498,
      "lon": 80.954747,
      "vehicle": "bicycle",
      "available": true
    },
    {
      "id": "RD-005",
      "name": "Usha Sharma",
      "phone": "9843916448",
      "lat": 26.772841,
      "lon": 80.984831,
      "vehicle": "bike",
      "available": true
    },
    {
      "id": "RD-006",
      "name": "Suresh Singh",
      "phone": "9416143856",
      "lat": 26.773498,
      "lon": 81.012839,
      "vehicle": "bike",
      "available": true
    },
    {
      "id": "RD-007",
      "name": "Kavita Tiwari",
      "phone": "9997167541",
      "lat": 26.827234,
      "lon": 80.997229,
      "vehicle": "bicycle",
      "available": true
    },
    {
      "id": "RD-008",
      "name": "Nisha Srivastava",
      "phone": "9403896361",
      "lat": 26.907749,
      "lon": 80.898955,
      "vehicle": "bicycle",
      "available": true
    },
    {
      "id": "RD-009",
      "name": "Priya Singh",
      "phone": "9743807364",
      "lat": 26.805566,
      "lon": 80.923909,
      "vehicle": "bike",
      "available": false
    },
    {
      "id": "RD-010",
      "name": "Rekha Sharma",
      "phone": "9800893655",
      "lat": 26.92436,
      "lon": 80.979785,
      "vehicle": "bike",
      "available": true
    },
    {
      "id": "RD-011",
      "name": "Ajay Joshi",
      "phone": "9546107668",
      "lat": 26.904968,
      "lon": 80.868194,
      "vehicle": "bike",
      "available": true
    },
    {
      "id": "RD-012",
      "name": "Nisha Tiwari",
      "phone": "9550709669",
      "lat": 26.811197,
      "lon": 80.920554,
      "vehicle": "bicycle",
      "available": false
    },
    {
      "id": "RD-013",
      "name": "Lata Joshi",
      "phone": "9982950587",
      "lat": 26.849105,
      "lon": 80.943921,
      "vehicle": "bicycle",
      "available": false
    },
    {
      "id": "RD-014",
      "name": "Anita Srivastava",
      "phone": "9455363764",
      "lat": 26.916571,
      "lon": 80.970396,
      "vehicle": "bike",
      "available": false
    },
    {
      "id": "RD-015",
      "name": "Sunita Singh",
      "phone": "9841889120",
      "lat": 26.896787,
      "lon": 80.9513,
      "vehicle": "bike",
      "available": false
    },
    {
      "id": "RD-016",
      "name": "Pooja Tiwari",
      "phone": "9170560326",
      "lat": 26.767854,
      "lon": 80.944083,
      "vehicle": "bicycle",
      "available": false
    },
    {
      "id": "RD-017",
      "name": "Vinod Sharma",
      "phone": "9499604277",
      "lat": 26.855203,
      "lon": 80.950736,
      "vehicle": "scooter",
      "available": false
    },
    {
      "id": "RD-018",
      "name": "Priya Srivastava",
      "phone": "9222297388",
      "lat": 26.798268,
      "lon": 80.934519,
      "vehicle": "bicycle",
      "available": false
    },
    {
      "id": "RD-019",
      "name": "Manju Tiwari",
      "phone": "9769884796",
      "lat": 26.91197,
      "lon": 80.880858,
      "vehicle": "scooter",
      "available": true
    },
    {
      "id": "RD-020",
      "name": "Manoj Tiwari",
      "phone": "9650857636",
      "lat": 26.882798,
      "lon": 81.017348,
      "vehicle": "bicycle",
      "available": false
    },
    {
      "id": "RD-021",
      "name": "Vinod Mishra",
      "phone": "9569076197",
      "lat": 26.861195,
      "lon": 80.924826,
      "vehicle": "bicycle",
      "available": false
    },
    {
      "id": "RD-022",
      "name": "Sunita Mishra",
      "phone": "9325075353",
      "lat": 26.901484,
      "lon": 80.919978,
      "vehicle": "bicycle",
      "available": true
    },
    {
      "id": "RD-023",
      "name": "Rohan Srivastava",
      "phone": "9933031098",
      "lat": 26.875062,
      "lon": 80.941964,
      "vehicle": "bicycle",
      "available": false
    },
    {
      "id": "RD-024",
      "name": "Usha Mishra",
      "phone": "9645036363",
      "lat": 26.902098,
      "lon": 81.020249,
      "vehicle": "scooter",
      "available": true
    },
    {
      "id": "RD-025",
      "name": "Vikram Yadav",
      "phone": "9221100866",
      "lat": 26.840123,
      "lon": 80.971034,
      "vehicle": "bicycle",
      "available": true
    },
    {
      "id": "RD-026",
      "name": "Sanjay Yadav",
      "phone": "9799541021",
      "lat": 26.790051,
      "lon": 80.992519,
      "vehicle": "bike",
      "available": false
    },
    {
      "id": "RD-027",
      "name": "Manju Pandey",
      "phone": "9409966685",
      "lat": 26.79029,
      "lon": 81.020829,
      "vehicle": "bike",
      "available": true
    },
    {
      "id": "RD-028",
      "name": "Deepak Singh",
      "phone": "9701735713",
      "lat": 26.78085,
      "lon": 80.961057,
      "vehicle": "bike",
      "available": false
    },
    {
      "id": "RD-029",
      "name": "Sunita Yadav",
      "phone": "9655434181",
      "lat": 26.795208,
      "lon": 80.974285,
      "vehicle": "bicycle",
      "available": false
    },
    {
      "id": "RD-030",
      "name": "Anita Pandey",
      "phone": "9881076106",
      "lat": 26.910155,
      "lon": 80.873997,
      "vehicle": "scooter",
      "available": true
    }
  ]
}