{
  "riders": [
    {
      "id": "RD-001",
      "name": "Aarav Singh",
      "phone": "9415769670",
      "lat": 26.886266,
      "lon": 80.970163,
      "vehicle": "bike",
      "available": true
    },
    {
      "id": "RD-002",
      "name": "Neha Joshi",
      "phone": "9532284361",
      "lat": 26.787527,
      "lon": 80.901279,
      "vehicle": "bicycle",
      "available": true
    },
    {
      "id": "RD-003",
      "name": "Ravi Kumar",
      "phone": "9305195439",
      "lat": 26.795712,
      "lon": 80.872564,
      "vehicle": "bike",
      "available": true
    },
    {
      "id": "RD-004",
      "name": "Priya Sharma",
      "phone": "9415170604",
      "lat": 26.77244,
      "lon": 80.996108,
      "vehicle": "bike",
      "available": true
    },
    {
      "id": "RD-005",
      "name": "Mohit Verma",
      "phone": "9452401200",
      "lat": 26.912989,
      "lon": 80.92468,
      "vehicle": "bike",
      "available": true
    },
    {
      "id": "RD-006",
      "name": "Anjali Yadav",
      "phone": "9839452588",
      "lat": 26.860136,
      "lon": 80.910367,
      "vehicle": "bike",
      "available": true
    },
    {
      "id": "RD-007",
      "name": "Deepak Gupta",
      "phone": "9839239640",
      "lat": 26.793014,
      "lon": 80.992803,
      "vehicle": "bicycle",
      "available": true
    },
    {
      "id": "RD-008",
      "name": "Sunita Patel",
      "phone": "9532539932",
      "lat": 26.800858,
      "lon": 80.884184,
      "vehicle": "bicycle",
      "available": true
    },
    {
      "id": "RD-009",
      "name": "Vikram Tiwari",
      "phone": "8765719256",
      "lat": 26.787854,
      "lon": 80.94642,
      "vehicle": "bike",
      "available": true
    },
    {
      "id": "RD-010",
      "name": "Pooja Mishra",
      "phone": "9305433905",
      "lat": 26.809768,
      "lon": 80.871757,
      "vehicle": "bike",
      "available": true
    },
    {
      "id": "RD-011",
      "name": "Rahul Srivastava",
      "phone": "9415788801",
      "lat": 26.869447,
      "lon": 81.00162,
      "vehicle": "bike",
      "available": true
    },
    {
      "id": "RD-012",
      "name": "Kavita Dubey",
      "phone": "9839963525",
      "lat": 26.777695,
      "lon": 80.93597,
      "vehicle": "bicycle",
      "available": true
    },
    {
      "id": "RD-013",
      "name": "Amit Chauhan",
      "phone": "9452500990",
      "lat": 26.868379,
      "lon": 80.960516,
      "vehicle": "bike",
      "available": true
    },
    {
      "id": "RD-014",
      "name": "Nisha Pandey",
      "phone": "9532385811",
      "lat": 26.882918,
      "lon": 80.892829,
      "vehicle": "scooter",
      "available": true
    },
    {
      "id": "RD-015",
      "name": "Suresh Rao",
      "phone": "7839508540",
      "lat": 26.843931,
      "lon": 80.87051,
      "vehicle": "bicycle",
      "available": true
    },
    {
      "id": "RD-016",
      "name": "Meena Agarwal",
      "phone": "8765340148",
      "lat": 26.84182,
      "lon": 80.889121,
      "vehicle": "bike",
      "available": true
    },
    {
      "id": "RD-017",
      "name": "Rajesh Shukla",
      "phone": "9305728496",
      "lat": 26.861002,
      "lon": 81.017883,
      "vehicle": "scooter",
      "available": true
    },
    {
      "id": "RD-018",
      "name": "Divya Singh",
      "phone": "9839749051",
      "lat": 26.804054,
      "lon": 80.980424,
      "vehicle": "scooter",
      "available": true
    },
    {
      "id": "RD-019",
      "name": "Arun Tripathi",
      "phone": "9305913843",
      "lat": 26.813785,
      "lon": 80.945198,
      "vehicle": "bike",
      "available": true
    },
    {
      "id": "RD-020",
      "name": "Shweta Saxena",
      "phone": "9839354749",
      "lat": 26.870232,
      "lon": 80.894778,
      "vehicle": "bike",
      "available": true
    },
    {
      "id": "RD-021",
      "name": "Manoj Keshari",
      "phone": "9839536332",
      "lat": 26.828327,
      "lon": 80.899316,
      "vehicle": "bike",
      "available": true
    },
    {
      "id": "RD-022",
      "name": "Preeti Bajpai",
      "phone": "7839884774",
      "lat": 26.896207,
      "lon": 80.901862,
      "vehicle": "bike",
      "available": true
    },
    {
      "id": "RD-023",
      "name": "Sanjay Maurya",
      "phone": "9532894930",
      "lat": 26.867959,
      "lon": 81.008111,
      "vehicle": "bicycle",
      "available": true
    },
    {
      "id": "RD-024",
      "name": "Rekha Vishwakarma",
      "phone": "9984580292",
      "lat": 26.776639,
      "lon": 80.894336,
      "vehicle": "scooter",
      "available": true
    },
    {
      "id": "RD-025",
      "name": "Nitin Chandra",
      "phone": "9452878643",
      "lat": 26.786191,
      "lon": 81.012853,
      "vehicle": "bike",
      "available": true
    },
    {
      "id": "RD-026",
      "name": "Alka Tiwari",
      "phone": "9452667492",
      "lat": 26.8514,
      "lon": 80.87411,
      "vehicle": "bicycle",
      "available": true
    },
    {
      "id": "RD-027",
      "name": "Gaurav Katiyar",
      "phone": "8765935977",
      "lat": 26.813207,
      "lon": 80.9829,
      "vehicle": "scooter",
      "available": true
    },
    {
      "id": "RD-028",
      "name": "Rina Shukla",
      "phone": "9839747232",
      "lat": 26.850049,
      "lon": 81.013766,
      "vehicle": "bike",
      "available": true
    },
    {
      "id": "RD-029",
      "name": "Pankaj Awasthi",
      "phone": "9305293095",
      "lat": 26.895771,
      "lon": 80.934369,
      "vehicle": "scooter",
      "available": true
    },
    {
      "id": "RD-030",
      "name": "Seema Lal",
      "phone": "9452897461",
      "lat": 26.802168,
      "lon": 80.904833,
      "vehicle": "bicycle",
      "available": true
    }
  ]
}